{"resultCount": 21, "offset": 0, "limit": 100, "queryTime": 2, "results": [{"﻿source": "1270", "street": "Rosencrantzgatan 15", "postalcode": "273 31", "name": "Allegro montessoriförskola", "locality": "Tomelilla", "students": "28", "id": "200", "type": "FS", "operation": "F", "lat": "55.54253094", "url": "http://forskolanallegro.se/", "long": "13.94951848"}, {"﻿source": "1270", "street": "Övraby Lunkagården", "postalcode": "273 91", "name": "Ankis familjedaghem", "locality": "Tomelilla", "students": "7", "id": "300", "type": "FD", "operation": "F", "lat": "55.49607247", "url": "https://www.tomelilla.se/forskola/ankis-familjedaghem", "long": "13.94959352"}, {"﻿source": "1270", "street": "Fabriksgatan 22", "postalcode": "273 30", "name": "Bonobos förskola", "locality": "Tomelilla", "students": "56", "id": "201", "type": "FS", "operation": "F", "lat": "55.5473166", "url": "https://www.bonobosforskola.com/", "long": "13.9561549"}, {"﻿source": "1270", "street": "Eljaröd 1104", "postalcode": "273 56", "name": "Eljens personalkooperativ", "locality": "Brösarp", "students": "19", "id": "202", "type": "FS", "operation": "F", "lat": "55.69819718", "url": "http://eljen.nu/", "long": "14.03497202"}, {"﻿source": "1270", "street": "Byavägen 2A", "postalcode": "273 31", "name": "Igelkottens förskola", "locality": "Tomelilla", "students": "44", "id": "203", "type": "FS", "operation": "F", "lat": "55.54196274", "url": "https://www.svenskakyrkan.se/igelkottensforskola", "long": "13.95293466 "}, {"﻿source": "1270", "street": "Blomstrands väg 12A", "postalcode": "273 95", "name": "Magazinets personalkooperativ", "locality": "Onslunda", "students": "33", "id": "204", "type": "FS", "operation": "F", "lat": "55.59877669", "url": "http://www.magazinetsforskola.se/", "long": "14.04526055"}, {"﻿source": "1270", "street": "Disponentgatan 8", "postalcode": "273 33", "name": "Nyckelpigans förskola", "locality": "Tomelilla", "students": "108", "id": "205", "type": "FS", "operation": "F", "lat": "55.5388348", "url": "http://www.nyckelpigansforskola.se/", "long": "13.9468004"}, {"﻿source": "1270", "street": "Kommunalgatan 6", "postalcode": "273 98", "name": "Barnens Förskola", "locality": "Smedstorp", "students": "56", "id": "100", "type": "FS", "operation": "K", "lat": "55.55198805", "url": "https://www.tomelilla.se/kommunala-forskolor/barnens-forskola-smedstorp", "long": "14.11763638"}, {"﻿source": "1270", "street": "Lärarevägen 9", "postalcode": "273 95", "name": "Fyrklöverns förskola", "locality": "Onslunda", "students": "44", "id": "101", "type": "FS", "operation": "K", "lat": "55.59896770 ", "url": "https://www.tomelilla.se/kommunala-forskolor/fyrkloverns-forskola-onslunda", "long": "14.04613317"}, {"﻿source": "1270", "street": "Skomakaregatan 10", "postalcode": "273 36", "name": "Lärkans förskola", "locality": "Tomelilla", "students": "89", "id": "102", "type": "FS", "operation": "K", "lat": "55.54210013", "url": "https://www.tomelilla.se/kommunala-forskolor/larkans-forskola-tomelilla", "long": "13.95934429"}, {"﻿source": "1270", "street": "Magistervägen 7", "postalcode": "273 50", "name": "Utsiktens förskola", "locality": "Brösarp", "students": "53", "id": "103", "type": "FS", "operation": "K", "lat": "55.72437711 ", "url": "https://www.tomelilla.se/kommunala-forskolor/i-ur-och-skur-brosarp", "long": "14.09669875 "}, {"﻿source": "1270", "street": "Stafettgatan 99", "postalcode": "273 35", "name": "Västervångens förskola", "locality": "Tomelilla", "students": "88", "id": "104", "type": "FS", "operation": "K", "lat": "55.54935759", "url": "https://www.tomelilla.se/kommunala-forskolor/vastervangens-forskola-tomelilla", "long": "13.93707747"}, {"﻿source": "1270", "street": "Björkebogatan 12", "postalcode": "273 31", "name": "Ängens förskola", "locality": "Tomelilla", "students": "106", "id": "105", "type": "FS", "operation": "K", "lat": "55.53717982", "url": "https://www.tomelilla.se/kommunala-forskolor/angens-forskola-tomelilla", "long": "13.95218276"}, {"﻿source": "1270", "street": "Björkebogatan 12", "postalcode": "273 31", "name": "Nattviolen", "locality": "Tomelilla", "students": "22", "id": "106", "type": "FS", "operation": "K", "lat": "55.53717982", "url": "https://www.tomelilla.se/kommunala-forskolor/nattviolens-ob-omsorg-tomelilla", "long": "13.95218276"}, {"﻿source": "1270", "street": "Magistervägen 9", "postalcode": "273 50", "name": "Brösarps skola", "locality": "Brösarp", "students": "98", "id": "500", "type": "GR", "operation": "K", "lat": "55.72431863", "url": "https://www.tomelilla.se/skolbarn-for-dig-som-har-barn-som-ar-6-16-ar/grundskola/brosarps-skola-tomelilla", "long": "14.09718632"}, {"﻿source": "1270", "street": "Trydevägen 43", "postalcode": "273 97", "name": "Tryde friskola", "locality": "Tomelilla", "students": "164", "id": "600", "type": "GR", "operation": "F", "lat": "55.56764970", "url": "http://www.trydefriskola.se/", "long": "13.92613100"}, {"﻿source": "1270", "street": "Rosencrantzgatan 28", "postalcode": "273 31 ", "name": "Byavångsskolan ", "locality": "Tomelilla", "students": "294", "id": "501", "type": "GR", "operation": "K", "lat": "55.54177510", "url": "https://www.tomelilla.se/skolbarn-for-dig-som-har-barn-som-ar-6-16-ar/kommunala-grunskolor/byavangsskolan-tomelilla", "long": "13.94730620"}, {"﻿source": "1270", "street": "Anders Perssons väg 7", "postalcode": "273 35", "name": "Kastanjeskolan ", "locality": "Tomelilla", "students": "361", "id": "502", "type": "GR", "operation": "K", "lat": "55.54786150", "url": "https://www.tomelilla.se/skolbarn-for-dig-som-har-barn-som-ar-6-16-ar/kommunala-grunskolor/kastanjeskolan-tomelilla", "long": "13.94113730"}, {"﻿source": "1270", "street": "Lindesborgsvägen 13", "postalcode": "273 33", "name": "Lindesborgsskolan", "locality": "Tomelilla", "students": "358", "id": "503", "type": "GR", "operation": "K", "lat": "55.53613510", "url": "https://www.tomelilla.se/skolbarn-for-dig-som-har-barn-som-ar-6-16-ar/kommunala-grunskolor/lindesborgsskolan-tomelilla", "long": "13.94968170"}, {"﻿source": "1270", "street": "Lärarevägen 9", "postalcode": "273 95", "name": "Odenslundsskolan", "locality": "Onslunda", "students": "146", "id": "504", "type": "GR", "operation": "K", "lat": "55.59896770 ", "url": "https://www.tomelilla.se/skolbarn-for-dig-som-har-barn-som-ar-6-16-ar/kommunala-grunskolor/odenslundsskolan-onslunda", "long": "14.04613317"}, {"﻿source": "1270", "street": "Kommunalgatan 6", "postalcode": "273 98", "name": "Smedstorps skola", "locality": "Smedstorp", "students": "141", "id": "505", "type": "GR", "operation": "K", "lat": "55.55165160", "url": "https://www.tomelilla.se/skolbarn-for-dig-som-har-barn-som-ar-6-16-ar/kommunala-grunskolor/smedstorps-skola-smedstorp", "long": "14.1179315"}]}